{
"internal_opaque": "KGRwMApTJ3BhcmVudF90YXNrX3V1aWQnCnAxClMnJwpwMgpzUyd2ZXJzaW9uJwpwMwpWZWw3LjMtb3B0LW1hc3Rlci02MTQwYWE4N2MzNzkyNjkzNzU5ZjM5MmMyZmE5N2MzMDg1YmEyZDRhCnA0CnNTJ2luaXRpYWxfcGFzc3dvcmQnCnA1ClYKcDYKc1MnYXV0b19yZWdpc3RlcicKcDcKSTAwCnNTJ3NvZnR3YXJlX3R5cGUnCnA4ClZwcmlzbV9jZW50cmFsX2RlcGxveQpwOQpzUydhZGRfdG9fZXhpc3RpbmdfY2x1c3Rlcl9pcCcKcDEwCmc2CnNTJ2RhdGFfZGlza19zaXplX21pYicKcDExCkw1MTIwMDBMCnNTJ2NsdXN0ZXJfc3BlYycKcDEyClMnXHgxYVx4OWRceDAyXG4kZDUyYzA3YWEtYmFjNy00MGJlLTgwNDMtODc2NzE1ZDg2M2JiXHgxMiFhdXRvX3BjXzYzMzU4NTU4NTdmMmYzZmE1Mjk0OWRhMTAoXHgwNjBceDgwXHhkMFx4MDFCVlxuXHgwYjEwLjk3LjE2LjE5XHgxMlxyMjU1LjI1NS4yNDAuMFx4MWFcbjEwLjk3LjE2LjEiJDBjMjYyNmE1LTA2MjItNDA5NS05MzhkLWU3NzI2YzUzMDNiZSpceDA2dmxhbi4wSlx4MGIxMC40MC42NC4xNUpceDBiMTAuNDAuNjQuMTZSXHgxNTAuY2VudG9zLnBvb2wubnRwLm9yZ1JceDE1MS5jZW50b3MucG9vbC5udHAub3JnUlx4MTUyLmNlbnRvcy5wb29sLm50cC5vcmdSXHgxNTMuY2VudG9zLnBvb2wubnRwLm9yZ1x4MWFceDlkXHgwMlxuJDEzNzZiOGIxLTdlMDMtNGZiZC1iOTRjLTU4NzE3NDBmNjM1ZVx4MTIhYXV0b19wY182MzM1ODU1ODU3ZjJmM2ZhNTI5NDlkYTExKFx4MDYwXHg4MFx4ZDBceDAxQlZcblx4MGIxMC45Ny4xNi4yMFx4MTJccjI1NS4yNTUuMjQwLjBceDFhXG4xMC45Ny4xNi4xIiQwYzI2MjZhNS0wNjIyLTQwOTUtOTM4ZC1lNzcyNmM1MzAzYmUqXHgwNnZsYW4uMEpceDBiMTAuNDAuNjQuMTVKXHgwYjEwLjQwLjY0LjE2Ulx4MTUwLmNlbnRvcy5wb29sLm50cC5vcmdSXHgxNTEuY2VudG9zLnBvb2wubnRwLm9yZ1JceDE1Mi5jZW50b3MucG9vbC5udHAub3JnUlx4MTUzLmNlbnRvcy5wb29sLm50cC5vcmdceDFhXHg5ZFx4MDJcbiRjZWNjODQzYS1mMDQyLTQxNDItOGQxOS0yNWNmYWZlMTI2YTdceDEyIWF1dG9fcGNfNjMzNTg1NTg1N2YyZjNmYTUyOTQ5ZGExMihceDA2MFx4ODBceGQwXHgwMUJWXG5ceDBiMTAuOTcuMTYuNDlceDEyXHIyNTUuMjU1LjI0MC4wXHgxYVxuMTAuOTcuMTYuMSIkMGMyNjI2YTUtMDYyMi00MDk1LTkzOGQtZTc3MjZjNTMwM2JlKlx4MDZ2bGFuLjBKXHgwYjEwLjQwLjY0LjE1Slx4MGIxMC40MC42NC4xNlJceDE1MC5jZW50b3MucG9vbC5udHAub3JnUlx4MTUxLmNlbnRvcy5wb29sLm50cC5vcmdSXHgxNTIuY2VudG9zLnBvb2wubnRwLm9yZ1JceDE1My5jZW50b3MucG9vbC5udHAub3JnIFx4MDJCIGRlZmF1bHQtY29udGFpbmVyLTgzOTQxNTgzNTQ5NTA5Slx4MGMxMC45Ny4xNi4xNDlSXHg5NVx4MDJceDA4XHgwMVx4MTJceDE5MTAuOTcuMTYuMTQ0IDEwLjk3LjE2LjE0NFx4MTJceDE5MTAuOTcuMTYuMTQ2IDEwLjk3LjE2LjE0Nlx4MTJceDE5MTAuOTcuMTYuMTQ3IDEwLjk3LjE2LjE0N1x4MTJceDE5MTAuOTcuMTYuMTQ4IDEwLjk3LjE2LjE0OFx4MTJceDE3MTAuOTcuMTYuNTAgMTAuOTcuMTYuNTBceDEyXHgxNzEwLjk3LjE2LjUxIDEwLjk3LjE2LjUxXHgxMlx4MTcxMC45Ny4xNi41MiAxMC45Ny4xNi41Mlx4MWFBXHgxMlxyMjU1LjI1NS4yNDAuMFx4MWFcbjEwLjk3LjE2LjEiJDBjMjYyNmE1LTA2MjItNDA5NS05MzhkLWU3NzI2YzUzMDNiZSJceDE3bXNwLnBjLWRmamQubnV0YW5peC5jb20nCnAxMwpzLg==",
"request_context": {},
"logical_timestamp": 9,
"weight": 1000,
"cluster_uuid": "0005e9cf-ded8-26b1-0393-e99f23ff011e",
"message": "Download and deploy prism central",
"uuid": "341a1b25-03d4-4e82-5f92-db0e87d4b064",
"start_time_usecs": "2022-09-29T13:01:07Z",
"response": {
"error_detail": "Encountered Exception in post_deployment step: Failed to enable micro services infrastructure on PC: deploy msp:failed to deploy the ntnx dvp: Operation timed out"
},
"last_updated_time_usecs": "2022-09-29T15:37:37Z",
"create_time_usecs": "2022-09-29T13:01:07Z",
"status": "kFailed",
"local_root_task_uuid": "341a1b25-03d4-4e82-5f92-db0e87d4b064",
"entity_list": [
{
"entity_id": "0005e9cf-ded8-26b1-0393-e99f23ff011e",
"entity_type": "kCluster"
}
],
"component": "cluster_config",
"sequence_id": 1,
"requested_state_transition": "kNone",
"complete_time_usecs": "2022-09-29T15:37:37Z",
"percentage_complete": 100,
"operation_type": "kPrismCentralDeploymentRequest"
}
{
"parent_task_uuid": "341a1b25-03d4-4e82-5f92-db0e87d4b064",
"internal_opaque": "KGRwMQpTJ2FwcF9kZXBsb3ltZW50X3Rhc2tfdXVpZCcKcDIKUydceGQ5XHhjM1x4OTBceDFkXHhmZVx4MTZCXHhiY2NxXHgwYlx4ODFceGVhXHhkM0xceGQ0JwpwMwpzLg==",
"disable_auto_progress_update": true,
"request_context": {},
"logical_timestamp": 10,
"weight": 1000,
"cluster_uuid": "0005e9cf-ded8-26b1-0393-e99f23ff011e",
"message": "Encountered Exception in post_deployment step: Failed to enable micro services infrastructure on PC: deploy msp:failed to deploy the ntnx dvp: Operation timed out",
"uuid": "d8350d3d-aca8-4810-4e27-19990763a22b",
"start_time_usecs": "2022-09-29T13:01:08Z",
"response": {
"error_detail": "Encountered Exception in post_deployment step: Failed to enable micro services infrastructure on PC: deploy msp:failed to deploy the ntnx dvp: Operation timed out"
},
"last_updated_time_usecs": "2022-09-29T15:37:37Z",
"create_time_usecs": "2022-09-29T13:01:08Z",
"status": "kFailed",
"local_root_task_uuid": "341a1b25-03d4-4e82-5f92-db0e87d4b064",
"entity_list": [
{
"entity_type": "kCluster"
}
],
"component": "infra",
"sequence_id": 2,
"requested_state_transition": "kNone",
"complete_time_usecs": "2022-09-29T15:37:37Z",
"percentage_complete": 100,
"operation_type": "Prism Central Deployment"
}
{
"parent_task_uuid": "d8350d3d-aca8-4810-4e27-19990763a22b",
"request_context": {},
"logical_timestamp": 9,
"weight": 600,
"cluster_uuid": "0005e9cf-ded8-26b1-0393-e99f23ff011e",
"message": "Encountered Exception in post_deployment step: Failed to enable micro services infrastructure on PC: deploy msp:failed to deploy the ntnx dvp: Operation timed out",
"uuid": "d9c3901d-fe16-42bc-6371-0b81ead34cd4",
"start_time_usecs": "2022-09-29T13:15:32Z",
"response": {
"error_detail": "Encountered Exception in post_deployment step: Failed to enable micro services infrastructure on PC: deploy msp:failed to deploy the ntnx dvp: Operation timed out"
},
"last_updated_time_usecs": "2022-09-29T15:37:36Z",
"create_time_usecs": "2022-09-29T13:15:32Z",
"status": "kFailed",
"local_root_task_uuid": "341a1b25-03d4-4e82-5f92-db0e87d4b064",
"entity_list": [
{
"entity_type": "kCluster"
}
],
"component": "infra",
"sequence_id": 4,
"requested_state_transition": "kNone",
"complete_time_usecs": "2022-09-29T15:37:36Z",
"percentage_complete": 100,
"operation_type": "AppDeployment"
}
{
"parent_task_uuid": "d9c3901d-fe16-42bc-6371-0b81ead34cd4",
"disable_auto_progress_update": true,
"request_context": {},
"logical_timestamp": 8,
"weight": 300,
"cluster_uuid": "0005e9cf-ded8-26b1-0393-e99f23ff011e",
"message": "Encountered Exception in post_deployment step: Failed to enable micro services infrastructure on PC: deploy msp:failed to deploy the ntnx dvp: Operation timed out",
"uuid": "1316257f-7a44-40b1-6a66-fa42567fcd58",
"start_time_usecs": "2022-09-29T14:08:34Z",
"response": {
"error_detail": "Encountered Exception in post_deployment step: Failed to enable micro services infrastructure on PC: deploy msp:failed to deploy the ntnx dvp: Operation timed out"
},
"last_updated_time_usecs": "2022-09-29T15:37:36Z",
"create_time_usecs": "2022-09-29T13:15:32Z",
"status": "kFailed",
"local_root_task_uuid": "341a1b25-03d4-4e82-5f92-db0e87d4b064",
"component": "kCluster",
"sequence_id": 4,
"requested_state_transition": "kNone",
"complete_time_usecs": "2022-09-29T15:37:36Z",
"percentage_complete": 100,
"operation_type": "Post Deployment Steps"
}
{
"internal_opaque": "KGRwMApTJ2ludGVybmFsX3ZtX25pY19jcmVhdGVfaWRlbXBvdGVuY2VfdG9rZW4nCnAxClMnMD5MXHhiZCRceDg0TGdceDgzXHhjOFFceGUxXHhiZVx4ZDVceGIwXHhhNCcKcDIKc1MnaW50ZXJuYWxfdm1fbmljX2NyZWF0ZV9vcF9oYW5kbGUnCnAzClMnMD5MXHhiZCRceDg0TGdceDgzXHhjOFFceGUxXHhiZVx4ZDVceGIwXHhhNCcKcDQKc1MnaW50ZXJuYWxfY3VycmVudF9zdGF0ZV9pbmZvJwpwNQooUydDT05TT0xJREFURV9SRVNVTFRTJwpwNgpOdHA3CnMu",
"disable_auto_progress_update": true,
"request_context": {
"user_name": "admin",
"user_ip": "10.97.16.20"
},
"logical_timestamp": 5,
"weight": 1000,
"cluster_uuid": "0005e9cf-ded8-26b1-0393-e99f23ff011e",
"uuid": "b7d172b3-bcd2-431e-a93e-1e77670ca9b6",
"start_time_usecs": "2022-09-29T15:14:51Z",
"response": {},
"last_updated_time_usecs": "2022-09-29T15:14:57Z",
"create_time_usecs": "2022-09-29T15:14:51Z",
"status": "kSucceeded",
"local_root_task_uuid": "b7d172b3-bcd2-431e-a93e-1e77670ca9b6",
"entity_list": [
{
"entity_id": "d52c07aa-bac7-40be-8043-876715d863bb",
"entity_type": "kVM"
}
],
"component": "Uhura",
"sequence_id": 13,
"requested_state_transition": "kNone",
"complete_time_usecs": "2022-09-29T15:14:57Z",
"percentage_complete": 100,
"request": "ChDVLAequsdAvoBDh2cV2GO7EP///////////wEaFFAFWhAMJialBiJAlZON53JsUwO+",
"operation_type": "VmNicCreate"
}
{
"parent_task_uuid": "b7d172b3-bcd2-431e-a93e-1e77670ca9b6",
"internal_opaque": "CjgKEHzKTo7+XkL/Qm06yuTTicESJGQ1MmMwN2FhLWJhYzctNDBiZS04MDQzLTg3NjcxNWQ4NjNiYg==",
"disable_auto_progress_update": true,
"request_context": {
"user_name": "admin",
"user_ip": "10.97.16.20"
},
"logical_timestamp": 4,
"weight": 1000,
"cluster_uuid": "0005e9cf-ded8-26b1-0393-e99f23ff011e",
"uuid": "303e4cbd-2484-4c67-83c8-51e1bed5b0a4",
"start_time_usecs": "2022-09-29T15:14:51Z",
"response": {},
"last_updated_time_usecs": "2022-09-29T15:14:57Z",
"create_time_usecs": "2022-09-29T15:14:51Z",
"status": "kSucceeded",
"local_root_task_uuid": "b7d172b3-bcd2-431e-a93e-1e77670ca9b6",
"entity_list": [
{
"entity_id": "d52c07aa-bac7-40be-8043-876715d863bb",
"entity_type": "kVM"
},
{
"entity_id": "3df715ab-b7ae-4685-8fa0-c197b8fb18b0",
"entity_type": "kNode"
}
],
"component": "Narsil",
"sequence_id": 13,
"requested_state_transition": "kNone",
"complete_time_usecs": "2022-09-29T15:14:57Z",
"percentage_complete": 100,
"request": "ChDVLAequsdAvoBDh2cV2GO7EP///////////wEaGBIQDCYmpQYiQJWTjedybFMDvigBOAFAASIQMD5MvSSETGeDyFHhvtWwpCoQt9Fys7zSQx6pPh53Zwyptg==",
"operation_type": "kVmNicCreate"
}
{
"parent_task_uuid": "303e4cbd-2484-4c67-83c8-51e1bed5b0a4",
"internal_opaque": "CkcqKhIQDCYmpQYiQJWTjedybFMDvigBOAFqEJcBdBf82kRLnrfiPvtLZsVwAYABArgBAZAEAZoEBlBrjaxW05oEBlBrjZ8bvnrAAwq9Awq6AwoNVm1OaWNBZGRBdWRpdBIrOTcwMTc0MTctZmNkYS00NDRiLTllYjctZTIzZWZiNGI2NmM1OmNyZWF0ZRoQzpqCkzAeSVq3PfHvbn/kFSIqCgJ2bRIkZDUyYzA3YWEtYmFjNy00MGJlLTgwNDMtODc2NzE1ZDg2M2JiIjMKC3ZpcnR1YWxfbmljEiQ5NzAxNzQxNy1mY2RhLTQ0NGItOWViNy1lMjNlZmI0YjY2YzUiNwoPdmlydHVhbF9uZXR3b3JrEiQwYzI2MjZhNS0wNjIyLTQwOTUtOTM4ZC1lNzcyNmM1MzAzYmUquwEoZHAwClMndm1fbmFtZScKcDEKVmF1dG9fcGNfNjMzNTg1NTg1N2YyZjNmYTUyOTQ5ZGExMApwMgpzUydtZXNzYWdlJwpwMwpTJ0FkZGVkIE5JQyB7bWFjX2FkZHJlc3N9IHRvIFZNIHt2bV9uYW1lfScKcDQKc1MnaXNfY29ubmVjdGVkJwpwNQpJMDEKc1MnbWFjX2FkZHJlc3MnCnA2ClMnNTA6NmI6OGQ6YzU6YTU6N2YnCnA3CnMuQX2uwFbS6QUASXa/G1fS6QUAUAE=",
"disable_auto_progress_update": true,
"capability_list": [
"\u0002"
],
"request_context": {
"user_name": "admin",
"user_ip": "10.97.16.20"
},
"internal_task": true,
"logical_timestamp": 9,
"weight": 1000,
"cluster_uuid": "0005e9cf-ded8-26b1-0393-e99f23ff011e",
"uuid": "7cca4e8e-fe5e-42ff-426d-3acae4d389c1",
"start_time_usecs": "2022-09-29T15:14:51Z",
"response": {},
"last_updated_time_usecs": "2022-09-29T15:14:57Z",
"create_time_usecs": "2022-09-29T15:14:51Z",
"status": "kSucceeded",
"local_root_task_uuid": "b7d172b3-bcd2-431e-a93e-1e77670ca9b6",
"entity_list": [
{
"entity_id": "d52c07aa-bac7-40be-8043-876715d863bb",
"entity_type": "kVM",
"logical_timestamp": 8
},
{
"entity_id": "3df715ab-b7ae-4685-8fa0-c197b8fb18b0",
"entity_type": "kNode"
}
],
"component": "Acropolis",
"sequence_id": 24,
"requested_state_transition": "kNone",
"complete_time_usecs": "2022-09-29T15:14:57Z",
"percentage_complete": 100,
"request": "ChDVLAequsdAvoBDh2cV2GO7EP///////////wEaGBIQDCYmpQYiQJWTjedybFMDvigBOAFAASIQfMpOjv5eQv9CbTrK5NOJwSoQMD5MvSSETGeDyFHhvtWwpDgB",
"operation_type": "kVmNicCreate"
}
{
"internal_opaque": "KGRwMApTJ2ludGVybmFsX3ZtX25pY19jcmVhdGVfaWRlbXBvdGVuY2VfdG9rZW4nCnAxClMnXHg5NFx4ZmVUXHhlMFNceDgxSFx4YWFceGE3XFw7UT5ceDg0PVx4YWYnCnAyCnNTJ2ludGVybmFsX3ZtX25pY19jcmVhdGVfb3BfaGFuZGxlJwpwMwpTJ1x4OTRceGZlVFx4ZTBTXHg4MUhceGFhXHhhN1xcO1E+XHg4ND1ceGFmJwpwNApzUydpbnRlcm5hbF9jdXJyZW50X3N0YXRlX2luZm8nCnA1CihTJ0NPTlNPTElEQVRFX1JFU1VMVFMnCnA2Ck50cDcKcy4=",
"disable_auto_progress_update": true,
"request_context": {
"user_name": "admin",
"user_ip": "10.97.16.20"
},
"logical_timestamp": 5,
"weight": 1000,
"cluster_uuid": "0005e9cf-ded8-26b1-0393-e99f23ff011e",
"uuid": "0aedd35c-ab2b-43db-a1c8-afc51964606e",
"start_time_usecs": "2022-09-29T14:56:00Z",
"response": {},
"last_updated_time_usecs": "2022-09-29T14:56:07Z",
"create_time_usecs": "2022-09-29T14:56:00Z",
"status": "kSucceeded",
"local_root_task_uuid": "0aedd35c-ab2b-43db-a1c8-afc51964606e",
"entity_list": [
{
"entity_id": "cecc843a-f042-4142-8d19-25cfafe126a7",
"entity_type": "kVM"
}
],
"component": "Uhura",
"sequence_id": 12,
"requested_state_transition": "kNone",
"complete_time_usecs": "2022-09-29T14:56:07Z",
"percentage_complete": 100,
"request": "ChDOzIQ68EJBQo0ZJc+v4SanEP///////////wEaFFAFWhAMJialBiJAlZON53JsUwO+",
"operation_type": "VmNicCreate"
}
{
"parent_task_uuid": "0aedd35c-ab2b-43db-a1c8-afc51964606e",
"internal_opaque": "CjgKEO8Oh9mLnU0EUvcDH5cnbYcSJGNlY2M4NDNhLWYwNDItNDE0Mi04ZDE5LTI1Y2ZhZmUxMjZhNw==",
"disable_auto_progress_update": true,
"request_context": {
"user_name": "admin",
"user_ip": "10.97.16.20"
},
"logical_timestamp": 4,
"weight": 1000,
"cluster_uuid": "0005e9cf-ded8-26b1-0393-e99f23ff011e",
"uuid": "94fe54e0-5381-48aa-a75c-3b513e843daf",
"start_time_usecs": "2022-09-29T14:56:00Z",
"response": {},
"last_updated_time_usecs": "2022-09-29T14:56:07Z",
"create_time_usecs": "2022-09-29T14:56:00Z",
"status": "kSucceeded",
"local_root_task_uuid": "0aedd35c-ab2b-43db-a1c8-afc51964606e",
"entity_list": [
{
"entity_id": "cecc843a-f042-4142-8d19-25cfafe126a7",
"entity_type": "kVM"
},
{
"entity_id": "3df715ab-b7ae-4685-8fa0-c197b8fb18b0",
"entity_type": "kNode"
}
],
"component": "Narsil",
"sequence_id": 12,
"requested_state_transition": "kNone",
"complete_time_usecs": "2022-09-29T14:56:07Z",
"percentage_complete": 100,
"request": "ChDOzIQ68EJBQo0ZJc+v4SanEP///////////wEaGBIQDCYmpQYiQJWTjedybFMDvigBOAFAASIQlP5U4FOBSKqnXDtRPoQ9ryoQCu3TXKsrQ9uhyK/FGWRgbg==",
"operation_type": "kVmNicCreate"
}
{
"parent_task_uuid": "94fe54e0-5381-48aa-a75c-3b513e843daf",
"internal_opaque": "Cj4qKhIQDCYmpQYiQJWTjedybFMDvigBOAFqECF6tHSrokXRnfEYjGFZHARwAYABArgBAZAEAZoEBlBrjdeLkHrAAwq9Awq6AwoNVm1OaWNBZGRBdWRpdBIrMjE3YWI0NzQtYWJhMi00NWQxLTlkZjEtMTg4YzYxNTkxYzA0OmNyZWF0ZRoQF/G2tx/1SK6g74ZD4fO6DyIqCgJ2bRIkY2VjYzg0M2EtZjA0Mi00MTQyLThkMTktMjVjZmFmZTEyNmE3IjMKC3ZpcnR1YWxfbmljEiQyMTdhYjQ3NC1hYmEyLTQ1ZDEtOWRmMS0xODhjNjE1OTFjMDQiNwoPdmlydHVhbF9uZXR3b3JrEiQwYzI2MjZhNS0wNjIyLTQwOTUtOTM4ZC1lNzcyNmM1MzAzYmUquwEoZHAwClMndm1fbmFtZScKcDEKVmF1dG9fcGNfNjMzNTg1NTg1N2YyZjNmYTUyOTQ5ZGExMgpwMgpzUydtZXNzYWdlJwpwMwpTJ0FkZGVkIE5JQyB7bWFjX2FkZHJlc3N9IHRvIFZNIHt2bV9uYW1lfScKcDQKc1MnaXNfY29ubmVjdGVkJwpwNQpJMDEKc1MnbWFjX2FkZHJlc3MnCnA2ClMnNTA6NmI6OGQ6ZTI6OWM6MjAnCnA3CnMuQTZgWBPS6QUASajrvxPS6QUAUAE=",
"disable_auto_progress_update": true,
"capability_list": [
"\u0002"
],
"request_context": {
"user_name": "admin",
"user_ip": "10.97.16.20"
},
"internal_task": true,
"logical_timestamp": 9,
"weight": 1000,
"cluster_uuid": "0005e9cf-ded8-26b1-0393-e99f23ff011e",
"uuid": "ef0e87d9-8b9d-4d04-52f7-031f97276d87",
"start_time_usecs": "2022-09-29T14:56:00Z",
"response": {},
"last_updated_time_usecs": "2022-09-29T14:56:07Z",
"create_time_usecs": "2022-09-29T14:56:00Z",
"status": "kSucceeded",
"local_root_task_uuid": "0aedd35c-ab2b-43db-a1c8-afc51964606e",
"entity_list": [
{
"entity_id": "cecc843a-f042-4142-8d19-25cfafe126a7",
"entity_type": "kVM",
"logical_timestamp": 6
},
{
"entity_id": "3df715ab-b7ae-4685-8fa0-c197b8fb18b0",
"entity_type": "kNode"
}
],
"component": "Acropolis",
"sequence_id": 23,
"requested_state_transition": "kNone",
"complete_time_usecs": "2022-09-29T14:56:07Z",
"percentage_complete": 100,
"request": "ChDOzIQ68EJBQo0ZJc+v4SanEP///////////wEaGBIQDCYmpQYiQJWTjedybFMDvigBOAFAASIQ7w6H2YudTQRS9wMflydthyoQlP5U4FOBSKqnXDtRPoQ9rzgB",
"operation_type": "kVmNicCreate"
}
{
"internal_opaque": "KGRwMApTJ2ludGVybmFsX3ZtX25pY19jcmVhdGVfaWRlbXBvdGVuY2VfdG9rZW4nCnAxClMnblx4YjJceDhmOVx4YmRceDg1QFx4ZmNceGEwWlx4YzZ9XHhjNyhceGViQicKcDIKc1MnaW50ZXJuYWxfdm1fbmljX2NyZWF0ZV9vcF9oYW5kbGUnCnAzClMnblx4YjJceDhmOVx4YmRceDg1QFx4ZmNceGEwWlx4YzZ9XHhjNyhceGViQicKcDQKc1MnaW50ZXJuYWxfY3VycmVudF9zdGF0ZV9pbmZvJwpwNQooUydDT05TT0xJREFURV9SRVNVTFRTJwpwNgpOdHA3CnMu",
"disable_auto_progress_update": true,
"request_context": {
"user_name": "admin",
"user_ip": "10.97.16.20"
},
"logical_timestamp": 5,
"weight": 1000,
"cluster_uuid": "0005e9cf-ded8-26b1-0393-e99f23ff011e",
"uuid": "df3007c8-5ecf-44cf-b40a-245bad941daf",
"start_time_usecs": "2022-09-29T14:55:27Z",
"response": {},
"last_updated_time_usecs": "2022-09-29T14:55:34Z",
"create_time_usecs": "2022-09-29T14:55:27Z",
"status": "kSucceeded",
"local_root_task_uuid": "df3007c8-5ecf-44cf-b40a-245bad941daf",
"entity_list": [
{
"entity_id": "1376b8b1-7e03-4fbd-b94c-5871740f635e",
"entity_type": "kVM"
}
],
"component": "Uhura",
"sequence_id": 11,
"requested_state_transition": "kNone",
"complete_time_usecs": "2022-09-29T14:55:34Z",
"percentage_complete": 100,
"request": "ChATdrixfgNPvblMWHF0D2NeEP///////////wEaFFAFWhAMJialBiJAlZON53JsUwO+",
"operation_type": "VmNicCreate"
}
{
"parent_task_uuid": "df3007c8-5ecf-44cf-b40a-245bad941daf",
"internal_opaque": "CjgKEO/DVkIeHUOSYEcPT4Ns4mkSJDEzNzZiOGIxLTdlMDMtNGZiZC1iOTRjLTU4NzE3NDBmNjM1ZQ==",
"disable_auto_progress_update": true,
"request_context": {
"user_name": "admin",
"user_ip": "10.97.16.20"
},
"logical_timestamp": 4,
"weight": 1000,
"cluster_uuid": "0005e9cf-ded8-26b1-0393-e99f23ff011e",
"uuid": "6eb28f39-bd85-40fc-a05a-c67dc728eb42",
"start_time_usecs": "2022-09-29T14:55:28Z",
"response": {},
"last_updated_time_usecs": "2022-09-29T14:55:34Z",
"create_time_usecs": "2022-09-29T14:55:27Z",
"status": "kSucceeded",
"local_root_task_uuid": "df3007c8-5ecf-44cf-b40a-245bad941daf",
"entity_list": [
{
"entity_id": "1376b8b1-7e03-4fbd-b94c-5871740f635e",
"entity_type": "kVM"
},
{
"entity_id": "3df715ab-b7ae-4685-8fa0-c197b8fb18b0",
"entity_type": "kNode"
}
],
"component": "Narsil",
"sequence_id": 11,
"requested_state_transition": "kNone",
"complete_time_usecs": "2022-09-29T14:55:34Z",
"percentage_complete": 100,
"request": "ChATdrixfgNPvblMWHF0D2NeEP///////////wEaGBIQDCYmpQYiQJWTjedybFMDvigBOAFAASIQbrKPOb2FQPygWsZ9xyjrQioQ3zAHyF7PRM+0CiRbrZQdrw==",
"operation_type": "kVmNicCreate"
}
{
"parent_task_uuid": "6eb28f39-bd85-40fc-a05a-c67dc728eb42",
"internal_opaque": "Cj4qKhIQDCYmpQYiQJWTjedybFMDvigBOAFqEONSZxWxT0SxtViQeQ8mM21wAYABArgBAZAEAZoEBlBrjYLKmHrAAwq9Awq6AwoNVm1OaWNBZGRBdWRpdBIrZTM1MjY3MTUtYjE0Zi00NGIxLWI1NTgtOTA3OTBmMjYzMzZkOmNyZWF0ZRoQo4ptcRuwTu2CWtwDjDfmjyIqCgJ2bRIkMTM3NmI4YjEtN2UwMy00ZmJkLWI5NGMtNTg3MTc0MGY2MzVlIjMKC3ZpcnR1YWxfbmljEiRlMzUyNjcxNS1iMTRmLTQ0YjEtYjU1OC05MDc5MGYyNjMzNmQiNwoPdmlydHVhbF9uZXR3b3JrEiQwYzI2MjZhNS0wNjIyLTQwOTUtOTM4ZC1lNzcyNmM1MzAzYmUquwEoZHAwClMndm1fbmFtZScKcDEKVmF1dG9fcGNfNjMzNTg1NTg1N2YyZjNmYTUyOTQ5ZGExMQpwMgpzUydtZXNzYWdlJwpwMwpTJ0FkZGVkIE5JQyB7bWFjX2FkZHJlc3N9IHRvIFZNIHt2bV9uYW1lfScKcDQKc1MnaXNfY29ubmVjdGVkJwpwNQpJMDEKc1MnbWFjX2FkZHJlc3MnCnA2ClMnNTA6NmI6OGQ6ZjQ6Njg6YTUnCnA3CnMuQSLKaBHS6QUASZCtzRHS6QUAUAE=",
"disable_auto_progress_update": true,
"capability_list": [
"\u0002"
],
"request_context": {
"user_name": "admin",
"user_ip": "10.97.16.20"
},
"internal_task": true,
"logical_timestamp": 9,
"weight": 1000,
"cluster_uuid": "0005e9cf-ded8-26b1-0393-e99f23ff011e",
"uuid": "efc35642-1e1d-4392-6047-0f4f836ce269",
"start_time_usecs": "2022-09-29T14:55:28Z",
"response": {},
"last_updated_time_usecs": "2022-09-29T14:55:34Z",
"create_time_usecs": "2022-09-29T14:55:27Z",
"status": "kSucceeded",
"local_root_task_uuid": "df3007c8-5ecf-44cf-b40a-245bad941daf",
"entity_list": [
{
"entity_id": "1376b8b1-7e03-4fbd-b94c-5871740f635e",
"entity_type": "kVM",
"logical_timestamp": 6
},
{
"entity_id": "3df715ab-b7ae-4685-8fa0-c197b8fb18b0",
"entity_type": "kNode"
}
],
"component": "Acropolis",
"sequence_id": 22,
"requested_state_transition": "kNone",
"complete_time_usecs": "2022-09-29T14:55:34Z",
"percentage_complete": 100,
"request": "ChATdrixfgNPvblMWHF0D2NeEP///////////wEaGBIQDCYmpQYiQJWTjedybFMDvigBOAFAASIQ78NWQh4dQ5JgRw9Pg2ziaSoQbrKPOb2FQPygWsZ9xyjrQjgB",
"operation_type": "kVmNicCreate"
}
{
"internal_opaque": "KGRwMApTJ2ludGVybmFsX3ZtX25pY19jcmVhdGVfaWRlbXBvdGVuY2VfdG9rZW4nCnAxClMnVlx4MTImXHhkZFx4OWJceGVhRlx4YThceDhhXG5ceDk4eFx4YTdceGQzSmwnCnAyCnNTJ2ludGVybmFsX3ZtX25pY19jcmVhdGVfb3BfaGFuZGxlJwpwMwpTJ1ZceDEyJlx4ZGRceDliXHhlYUZceGE4XHg4YVxuXHg5OHhceGE3XHhkM0psJwpwNApzUydpbnRlcm5hbF9jdXJyZW50X3N0YXRlX2luZm8nCnA1CihTJ0NPTlNPTElEQVRFX1JFU1VMVFMnCnA2Ck50cDcKcy4=",
"disable_auto_progress_update": true,
"request_context": {
"user_name": "admin",
"user_ip": "10.97.16.20"
},
"logical_timestamp": 5,
"weight": 1000,
"cluster_uuid": "0005e9cf-ded8-26b1-0393-e99f23ff011e",
"uuid": "463ac95f-6048-44f5-8631-d0fa9d4dd939",
"start_time_usecs": "2022-09-29T14:55:20Z",
"response": {},
"last_updated_time_usecs": "2022-09-29T14:55:27Z",
"create_time_usecs": "2022-09-29T14:55:20Z",
"status": "kSucceeded",
"local_root_task_uuid": "463ac95f-6048-44f5-8631-d0fa9d4dd939",
"entity_list": [
{
"entity_id": "d52c07aa-bac7-40be-8043-876715d863bb",
"entity_type": "kVM"
}
],
"component": "Uhura",
"sequence_id": 10,
"requested_state_transition": "kNone",
"complete_time_usecs": "2022-09-29T14:55:27Z",
"percentage_complete": 100,
"request": "ChDVLAequsdAvoBDh2cV2GO7EP///////////wEaFFAFWhAMJialBiJAlZON53JsUwO+",
"operation_type": "VmNicCreate"
}
{
"parent_task_uuid": "463ac95f-6048-44f5-8631-d0fa9d4dd939",
"internal_opaque": "CjgKEJ27/UtDM0a4X/I9zowO4NUSJGQ1MmMwN2FhLWJhYzctNDBiZS04MDQzLTg3NjcxNWQ4NjNiYg==",
"disable_auto_progress_update": true,
"request_context": {
"user_name": "admin",
"user_ip": "10.97.16.20"
},
"logical_timestamp": 4,
"weight": 1000,
"cluster_uuid": "0005e9cf-ded8-26b1-0393-e99f23ff011e",
"uuid": "561226dd-9bea-46a8-8a0a-9878a7d34a6c",
"start_time_usecs": "2022-09-29T14:55:20Z",
"response": {},
"last_updated_time_usecs": "2022-09-29T14:55:27Z",
"create_time_usecs": "2022-09-29T14:55:20Z",
"status": "kSucceeded",
"local_root_task_uuid": "463ac95f-6048-44f5-8631-d0fa9d4dd939",
"entity_list": [
{
"entity_id": "d52c07aa-bac7-40be-8043-876715d863bb",
"entity_type": "kVM"
},
{
"entity_id": "3df715ab-b7ae-4685-8fa0-c197b8fb18b0",
"entity_type": "kNode"
}
],
"component": "Narsil",
"sequence_id": 10,
"requested_state_transition": "kNone",
"complete_time_usecs": "2022-09-29T14:55:27Z",
"percentage_complete": 100,
"request": "ChDVLAequsdAvoBDh2cV2GO7EP///////////wEaGBIQDCYmpQYiQJWTjedybFMDvigBOAFAASIQVhIm3ZvqRqiKCph4p9NKbCoQRjrJX2BIRPWGMdD6nU3ZOQ==",
"operation_type": "kVmNicCreate"
}
{
"parent_task_uuid": "561226dd-9bea-46a8-8a0a-9878a7d34a6c",
"internal_opaque": "Cj4qKhIQDCYmpQYiQJWTjedybFMDvigBOAFqEJQBrKTXqURbiTEkGVesDRtwAYABArgBAZAEAZoEBlBrjaxW03rAAwq9Awq6AwoNVm1OaWNBZGRBdWRpdBIrOTQwMWFjYTQtZDdhOS00NDViLTg5MzEtMjQxOTU3YWMwZDFiOmNyZWF0ZRoQCf3kJ54mTvOpdBNp3Pd+pCIqCgJ2bRIkZDUyYzA3YWEtYmFjNy00MGJlLTgwNDMtODc2NzE1ZDg2M2JiIjMKC3ZpcnR1YWxfbmljEiQ5NDAxYWNhNC1kN2E5LTQ0NWItODkzMS0yNDE5NTdhYzBkMWIiNwoPdmlydHVhbF9uZXR3b3JrEiQwYzI2MjZhNS0wNjIyLTQwOTUtOTM4ZC1lNzcyNmM1MzAzYmUquwEoZHAwClMndm1fbmFtZScKcDEKVmF1dG9fcGNfNjMzNTg1NTg1N2YyZjNmYTUyOTQ5ZGExMApwMgpzUydtZXNzYWdlJwpwMwpTJ0FkZGVkIE5JQyB7bWFjX2FkZHJlc3N9IHRvIFZNIHt2bV9uYW1lfScKcDQKc1MnaXNfY29ubmVjdGVkJwpwNQpJMDEKc1MnbWFjX2FkZHJlc3MnCnA2ClMnNTA6NmI6OGQ6OWY6MWI6YmUnCnA3CnMuQVJ59xDS6QUASWtTYhHS6QUAUAE=",
"disable_auto_progress_update": true,
"capability_list": [
"\u0002"
],
"request_context": {
"user_name": "admin",
"user_ip": "10.97.16.20"
},
"internal_task": true,
"logical_timestamp": 9,
"weight": 1000,
"cluster_uuid": "0005e9cf-ded8-26b1-0393-e99f23ff011e",
"uuid": "9dbbfd4b-4333-46b8-5ff2-3dce8c0ee0d5",
"start_time_usecs": "2022-09-29T14:55:20Z",
"response": {},
"last_updated_time_usecs": "2022-09-29T14:55:27Z",
"create_time_usecs": "2022-09-29T14:55:20Z",
"status": "kSucceeded",
"local_root_task_uuid": "463ac95f-6048-44f5-8631-d0fa9d4dd939",
"entity_list": [
{
"entity_id": "d52c07aa-bac7-40be-8043-876715d863bb",
"entity_type": "kVM",
"logical_timestamp": 6
},
{
"entity_id": "3df715ab-b7ae-4685-8fa0-c197b8fb18b0",
"entity_type": "kNode"
}
],
"component": "Acropolis",
"sequence_id": 21,
"requested_state_transition": "kNone",
"complete_time_usecs": "2022-09-29T14:55:27Z",
"percentage_complete": 100,
"request": "ChDVLAequsdAvoBDh2cV2GO7EP///////////wEaGBIQDCYmpQYiQJWTjedybFMDvigBOAFAASIQnbv9S0MzRrhf8j3OjA7g1SoQVhIm3ZvqRqiKCph4p9NKbDgB",
"operation_type": "kVmNicCreate"
}
{
"parent_task_uuid": "d9c3901d-fe16-42bc-6371-0b81ead34cd4",
"disable_auto_progress_update": true,
"request_context": {},
"logical_timestamp": 2,
"weight": 300,
"cluster_uuid": "0005e9cf-ded8-26b1-0393-e99f23ff011e",
"message": "Cluster Creation Completed",
"uuid": "fdaa00eb-eec6-4cb5-42f9-67c62a708eea",
"start_time_usecs": "2022-09-29T14:06:33Z",
"response": {},
"last_updated_time_usecs": "2022-09-29T14:08:34Z",
"create_time_usecs": "2022-09-29T13:15:32Z",
"status": "kSucceeded",
"local_root_task_uuid": "341a1b25-03d4-4e82-5f92-db0e87d4b064",
"component": "kCluster",
"sequence_id": 3,
"requested_state_transition": "kNone",
"complete_time_usecs": "2022-09-29T14:08:34Z",
"percentage_complete": 100,
"operation_type": "Cluster Creation"
}
{
"internal_opaque": "KGRwMApTJ2ludGVybmFsX3ZtX3VwZGF0ZV9vcF9oYW5kbGUnCnAxClMnXHhkY1x4ZjVceDEyLFx4MTMiS1x4MTRceDg1XHhkZlx4MWZnXHhmZlx4OTNMdycKcDIKc1MnaW50ZXJuYWxfY3VycmVudF9zdGF0ZV9pbmZvJwpwMwooUydDT05TT0xJREFURV9SRVNVTFRTJwpwNApOdHA1CnNTJ2ludGVybmFsX3ZtX3VwZGF0ZV9pZGVtcG90ZW5jZV90b2tlbicKcDYKUydceGRjXHhmNVx4MTIsXHgxMyJLXHgxNFx4ODVceGRmXHgxZmdceGZmXHg5M0x3JwpwNwpzLg==",
"disable_auto_progress_update": true,
"request_context": {},
"logical_timestamp": 6,
"weight": 1000,
"cluster_uuid": "0005e9cf-ded8-26b1-0393-e99f23ff011e",
"uuid": "818d7c35-008c-47d7-909b-66cbbd5367df",
"start_time_usecs": "2022-09-29T14:06:33Z",
"response": {},
"last_updated_time_usecs": "2022-09-29T14:06:33Z",
"create_time_usecs": "2022-09-29T14:06:33Z",
"status": "kSucceeded",
"local_root_task_uuid": "818d7c35-008c-47d7-909b-66cbbd5367df",
"entity_list": [
{
"entity_id": "1376b8b1-7e03-4fbd-b94c-5871740f635e",
"entity_type": "kVM"
}
],
"component": "Uhura",
"sequence_id": 8,
"requested_state_transition": "kNone",
"complete_time_usecs": "2022-09-29T14:06:33Z",
"percentage_complete": 100,
"request": "GhATdrixfgNPvblMWHF0D2NegAIB",
"operation_type": "VmUpdate"
}
{
"internal_opaque": "KGRwMApTJ2ludGVybmFsX3ZtX3VwZGF0ZV9vcF9oYW5kbGUnCnAxClMnY0ItXHhkMG9ceDg4Slx4YzdceGJmfVx4OTg5S1x4MGZceGE5XHg4MycKcDIKc1MnaW50ZXJuYWxfY3VycmVudF9zdGF0ZV9pbmZvJwpwMwooUydDT05TT0xJREFURV9SRVNVTFRTJwpwNApOdHA1CnNTJ2ludGVybmFsX3ZtX3VwZGF0ZV9pZGVtcG90ZW5jZV90b2tlbicKcDYKUydjQi1ceGQwb1x4ODhKXHhjN1x4YmZ9XHg5ODlLXHgwZlx4YTlceDgzJwpwNwpzLg==",
"disable_auto_progress_update": true,
"request_context": {},
"logical_timestamp": 6,
"weight": 1000,
"cluster_uuid": "0005e9cf-ded8-26b1-0393-e99f23ff011e",
"uuid": "764e8c6e-44d8-4c70-b37c-616a9d3c0a17",
"start_time_usecs": "2022-09-29T14:06:33Z",
"response": {},
"last_updated_time_usecs": "2022-09-29T14:06:33Z",
"create_time_usecs": "2022-09-29T14:06:33Z",
"status": "kSucceeded",
"local_root_task_uuid": "764e8c6e-44d8-4c70-b37c-616a9d3c0a17",
"entity_list": [
{
"entity_id": "cecc843a-f042-4142-8d19-25cfafe126a7",
"entity_type": "kVM"
}
],
"component": "Uhura",
"sequence_id": 7,
"requested_state_transition": "kNone",
"complete_time_usecs": "2022-09-29T14:06:33Z",
"percentage_complete": 100,
"request": "GhDOzIQ68EJBQo0ZJc+v4SangAIB",
"operation_type": "VmUpdate"
}
{
"parent_task_uuid": "818d7c35-008c-47d7-909b-66cbbd5367df",
"internal_opaque": "CjgKEPIJAhaPcEtIdz15vCrc5ywSJDEzNzZiOGIxLTdlMDMtNGZiZC1iOTRjLTU4NzE3NDBmNjM1ZQ==",
"disable_auto_progress_update": true,
"request_context": {},
"logical_timestamp": 4,
"weight": 1000,
"cluster_uuid": "0005e9cf-ded8-26b1-0393-e99f23ff011e",
"uuid": "dcf5122c-1322-4b14-85df-1f67ff934c77",
"start_time_usecs": "2022-09-29T14:06:33Z",
"response": {},
"last_updated_time_usecs": "2022-09-29T14:06:33Z",
"create_time_usecs": "2022-09-29T14:06:33Z",
"status": "kSucceeded",
"local_root_task_uuid": "818d7c35-008c-47d7-909b-66cbbd5367df",
"entity_list": [
{
"entity_id": "1376b8b1-7e03-4fbd-b94c-5871740f635e",
"entity_type": "kVM"
},
{
"entity_id": "3df715ab-b7ae-4685-8fa0-c197b8fb18b0",
"entity_type": "kNode"
}
],
"component": "Narsil",
"sequence_id": 7,
"requested_state_transition": "kNone",
"complete_time_usecs": "2022-09-29T14:06:33Z",
"percentage_complete": 100,
"request": "ChATdrixfgNPvblMWHF0D2NeEP///////////wFiENz1EiwTIksUhd8fZ/+TTHdqEIGNfDUAjEfXkJtmy71TZ994AeACAQ==",
"operation_type": "kVmUpdate"
}
{
"parent_task_uuid": "764e8c6e-44d8-4c70-b37c-616a9d3c0a17",
"internal_opaque": "CjgKECEDtl2wVU+2S1HzLVZIn6MSJGNlY2M4NDNhLWYwNDItNDE0Mi04ZDE5LTI1Y2ZhZmUxMjZhNw==",
"disable_auto_progress_update": true,
"request_context": {},
"logical_timestamp": 4,
"weight": 1000,
"cluster_uuid": "0005e9cf-ded8-26b1-0393-e99f23ff011e",
"uuid": "63422dd0-6f88-4ac7-bf7d-98394b0fa983",
"start_time_usecs": "2022-09-29T14:06:33Z",
"response": {},
"last_updated_time_usecs": "2022-09-29T14:06:33Z",
"create_time_usecs": "2022-09-29T14:06:33Z",
"status": "kSucceeded",
"local_root_task_uuid": "764e8c6e-44d8-4c70-b37c-616a9d3c0a17",
"entity_list": [
{
"entity_id": "cecc843a-f042-4142-8d19-25cfafe126a7",
"entity_type": "kVM"
},
{
"entity_id": "3df715ab-b7ae-4685-8fa0-c197b8fb18b0",
"entity_type": "kNode"
}
],
"component": "Narsil",
"sequence_id": 8,
"requested_state_transition": "kNone",
"complete_time_usecs": "2022-09-29T14:06:33Z",
"percentage_complete": 100,
"request": "ChDOzIQ68EJBQo0ZJc+v4SanEP///////////wFiEGNCLdBviErHv32YOUsPqYNqEHZOjG5E2Exws3xhap08Chd4AeACAQ==",
"operation_type": "kVmUpdate"
}
{
"internal_opaque": "KGRwMApTJ2ludGVybmFsX3ZtX3VwZGF0ZV9vcF9oYW5kbGUnCnAxClMnNFx4MTNceDhicVx4YjFceGJlRW9ceDk2QERceGQ4XHg4Nlx4ZjFnUCcKcDIKc1MnaW50ZXJuYWxfY3VycmVudF9zdGF0ZV9pbmZvJwpwMwooUydDT05TT0xJREFURV9SRVNVTFRTJwpwNApOdHA1CnNTJ2ludGVybmFsX3ZtX3VwZGF0ZV9pZGVtcG90ZW5jZV90b2tlbicKcDYKUyc0XHgxM1x4OGJxXHhiMVx4YmVFb1x4OTZARFx4ZDhceDg2XHhmMWdQJwpwNwpzLg==",
"disable_auto_progress_update": true,
"request_context": {},
"logical_timestamp": 6,
"weight": 1000,
"cluster_uuid": "0005e9cf-ded8-26b1-0393-e99f23ff011e",
"uuid": "e980166f-d05b-4b20-9324-8f8b13804f23",
"start_time_usecs": "2022-09-29T14:06:33Z",
"response": {},
"last_updated_time_usecs": "2022-09-29T14:06:33Z",
"create_time_usecs": "2022-09-29T14:06:33Z",
"status": "kSucceeded",
"local_root_task_uuid": "e980166f-d05b-4b20-9324-8f8b13804f23",
"entity_list": [
{
"entity_id": "d52c07aa-bac7-40be-8043-876715d863bb",
"entity_type": "kVM"
}
],
"component": "Uhura",
"sequence_id": 9,
"requested_state_transition": "kNone",
"complete_time_usecs": "2022-09-29T14:06:33Z",
"percentage_complete": 100,
"request": "GhDVLAequsdAvoBDh2cV2GO7gAIB",
"operation_type": "VmUpdate"
}
{
"parent_task_uuid": "63422dd0-6f88-4ac7-bf7d-98394b0fa983",
"internal_opaque": "CgIQAw==",
"disable_auto_progress_update": true,
"capability_list": [
"\u0002"
],
"request_context": {
"user_name": "System"
},
"internal_task": true,
"logical_timestamp": 3,
"weight": 1000,
"cluster_uuid": "0005e9cf-ded8-26b1-0393-e99f23ff011e",
"uuid": "2103b65d-b055-4fb6-4b51-f32d56489fa3",
"start_time_usecs": "2022-09-29T14:06:33Z",
"response": {},
"last_updated_time_usecs": "2022-09-29T14:06:33Z",
"create_time_usecs": "2022-09-29T14:06:33Z",
"status": "kSucceeded",
"local_root_task_uuid": "764e8c6e-44d8-4c70-b37c-616a9d3c0a17",
"entity_list": [
{
"entity_id": "cecc843a-f042-4142-8d19-25cfafe126a7",
"entity_type": "kVM",
"logical_timestamp": 4
},
{
"entity_id": "3df715ab-b7ae-4685-8fa0-c197b8fb18b0",
"entity_type": "kNode"
}
],
"component": "Acropolis",
"sequence_id": 19,
"requested_state_transition": "kNone",
"complete_time_usecs": "2022-09-29T14:06:33Z",
"percentage_complete": 100,
"request": "ChDOzIQ68EJBQo0ZJc+v4SanEP///////////wFiECEDtl2wVU+2S1HzLVZIn6NqEGNCLdBviErHv32YOUsPqYN4AeACAZgDAQ==",
"operation_type": "kVmUpdate"
}
{
"parent_task_uuid": "dcf5122c-1322-4b14-85df-1f67ff934c77",
"internal_opaque": "CgIQAw==",
"disable_auto_progress_update": true,
"capability_list": [
"\u0002"
],
"request_context": {
"user_name": "System"
},
"internal_task": true,
"logical_timestamp": 3,
"weight": 1000,
"cluster_uuid": "0005e9cf-ded8-26b1-0393-e99f23ff011e",
"uuid": "f2090216-8f70-4b48-773d-79bc2adce72c",
"start_time_usecs": "2022-09-29T14:06:33Z",
"response": {},
"last_updated_time_usecs": "2022-09-29T14:06:33Z",
"create_time_usecs": "2022-09-29T14:06:33Z",
"status": "kSucceeded",
"local_root_task_uuid": "818d7c35-008c-47d7-909b-66cbbd5367df",
"entity_list": [
{
"entity_id": "1376b8b1-7e03-4fbd-b94c-5871740f635e",
"entity_type": "kVM",
"logical_timestamp": 4
},
{
"entity_id": "3df715ab-b7ae-4685-8fa0-c197b8fb18b0",
"entity_type": "kNode"
}
],
"component": "Acropolis",
"sequence_id": 18,
"requested_state_transition": "kNone",
"complete_time_usecs": "2022-09-29T14:06:33Z",
"percentage_complete": 100,
"request": "ChATdrixfgNPvblMWHF0D2NeEP///////////wFiEPIJAhaPcEtIdz15vCrc5yxqENz1EiwTIksUhd8fZ/+TTHd4AeACAZgDAQ==",
"operation_type": "kVmUpdate"
}
{
"parent_task_uuid": "e980166f-d05b-4b20-9324-8f8b13804f23",
"internal_opaque": "CjgKEAkafPFL50oQfFNcSN+Vrf0SJGQ1MmMwN2FhLWJhYzctNDBiZS04MDQzLTg3NjcxNWQ4NjNiYg==",
"disable_auto_progress_update": true,
"request_context": {},
"logical_timestamp": 4,
"weight": 1000,
"cluster_uuid": "0005e9cf-ded8-26b1-0393-e99f23ff011e",
"uuid": "34138b71-b1be-456f-9640-44d886f16750",
"start_time_usecs": "2022-09-29T14:06:33Z",
"response": {},
"last_updated_time_usecs": "2022-09-29T14:06:33Z",
"create_time_usecs": "2022-09-29T14:06:33Z",
"status": "kSucceeded",
"local_root_task_uuid": "e980166f-d05b-4b20-9324-8f8b13804f23",
"entity_list": [
{
"entity_id": "d52c07aa-bac7-40be-8043-876715d863bb",
"entity_type": "kVM"
},
{
"entity_id": "3df715ab-b7ae-4685-8fa0-c197b8fb18b0",
"entity_type": "kNode"
}
],
"component": "Narsil",
"sequence_id": 9,
"requested_state_transition": "kNone",
"complete_time_usecs": "2022-09-29T14:06:33Z",
"percentage_complete": 100,
"request": "ChDVLAequsdAvoBDh2cV2GO7EP///////////wFiEDQTi3GxvkVvlkBE2IbxZ1BqEOmAFm/QW0sgkySPixOATyN4AeACAQ==",
"operation_type": "kVmUpdate"
}
{
"parent_task_uuid": "34138b71-b1be-456f-9640-44d886f16750",
"internal_opaque": "CgIQAw==",
"disable_auto_progress_update": true,
"capability_list": [
"\u0002"
],
"request_context": {
"user_name": "System"
},
"internal_task": true,
"logical_timestamp": 3,
"weight": 1000,
"cluster_uuid": "0005e9cf-ded8-26b1-0393-e99f23ff011e",
"uuid": "091a7cf1-4be7-4a10-7c53-5c48df95adfd",
"start_time_usecs": "2022-09-29T14:06:33Z",
"response": {},
"last_updated_time_usecs": "2022-09-29T14:06:33Z",
"create_time_usecs": "2022-09-29T14:06:33Z",
"status": "kSucceeded",
"local_root_task_uuid": "e980166f-d05b-4b20-9324-8f8b13804f23",
"entity_list": [
{
"entity_id": "d52c07aa-bac7-40be-8043-876715d863bb",
"entity_type": "kVM",
"logical_timestamp": 4
},
{
"entity_id": "3df715ab-b7ae-4685-8fa0-c197b8fb18b0",
"entity_type": "kNode"
}
],
"component": "Acropolis",
"sequence_id": 20,
"requested_state_transition": "kNone",
"complete_time_usecs": "2022-09-29T14:06:33Z",
"percentage_complete": 100,
"request": "ChDVLAequsdAvoBDh2cV2GO7EP///////////wFiEAkafPFL50oQfFNcSN+Vrf1qEDQTi3GxvkVvlkBE2IbxZ1B4AeACAZgDAQ==",
"operation_type": "kVmUpdate"
}
{
"parent_task_uuid": "d9c3901d-fe16-42bc-6371-0b81ead34cd4",
"disable_auto_progress_update": true,
"request_context": {},
"logical_timestamp": 5,
"weight": 300,
"cluster_uuid": "0005e9cf-ded8-26b1-0393-e99f23ff011e",
"message": "VMs Deployed and Powered On",
"uuid": "00c22fb0-e0c4-49cc-7ffe-3e7133d894b2",
"start_time_usecs": "2022-09-29T13:15:32Z",
"response": {},
"last_updated_time_usecs": "2022-09-29T14:06:33Z",
"create_time_usecs": "2022-09-29T13:15:32Z",
"status": "kSucceeded",
"local_root_task_uuid": "341a1b25-03d4-4e82-5f92-db0e87d4b064",
"component": "kCluster",
"sequence_id": 2,
"requested_state_transition": "kNone",
"complete_time_usecs": "2022-09-29T14:06:33Z",
"percentage_complete": 100,
"operation_type": "VM Deployment"
}
{
"parent_task_uuid": "00c22fb0-e0c4-49cc-7ffe-3e7133d894b2",
"internal_opaque": "KGRwMApTJ2ludGVybmFsX3ZtX2NoYW5nZV9wb3dlcl9zdGF0ZV9pZGVtcG90ZW5jZV90b2tlbicKcDEKUydQXHg5YVx4ZGVceGZhXHg4MVx4ZWVIXHgxYlx4YThceGFhalx4ZDRceGU1KklceGNhJwpwMgpzUydpbnRlcm5hbF92bV9jaGFuZ2VfcG93ZXJfc3RhdGVfb3BfaGFuZGxlJwpwMwpTJ1BceDlhXHhkZVx4ZmFceDgxXHhlZUhceDFiXHhhOFx4YWFqXHhkNFx4ZTUqSVx4Y2EnCnA0CnNTJ2ludGVybmFsX2N1cnJlbnRfc3RhdGVfaW5mbycKcDUKKFMnQ09OU09MSURBVEVfUkVTVUxUUycKcDYKTnRwNwpzLg==",
"disable_auto_progress_update": true,
"request_context": {},
"logical_timestamp": 5,
"weight": 1000,
"cluster_uuid": "0005e9cf-ded8-26b1-0393-e99f23ff011e",
"uuid": "233f0c64-d6b4-4796-b6b9-4fc4df8aa229",
"start_time_usecs": "2022-09-29T13:15:39Z",
"response": {},
"last_updated_time_usecs": "2022-09-29T13:15:53Z",
"create_time_usecs": "2022-09-29T13:15:38Z",
"status": "kSucceeded",
"local_root_task_uuid": "341a1b25-03d4-4e82-5f92-db0e87d4b064",
"entity_list": [
{
"entity_id": "1376b8b1-7e03-4fbd-b94c-5871740f635e",
"entity_type": "kVM"
}
],
"component": "Uhura",
"sequence_id": 5,
"requested_state_transition": "kNone",
"complete_time_usecs": "2022-09-29T13:15:53Z",
"percentage_complete": 100,
"request": "EhAAwi+w4MRJzH/+PnEz2JSyGhATdrixfgNPvblMWHF0D2NeIAE=",
"operation_type": "VmChangePowerState"
}
{
"parent_task_uuid": "233f0c64-d6b4-4796-b6b9-4fc4df8aa229",
"internal_opaque": "CjgKEDDufPaOzUZBbFcT1YJ1dHMSJDEzNzZiOGIxLTdlMDMtNGZiZC1iOTRjLTU4NzE3NDBmNjM1ZQ==",
"disable_auto_progress_update": true,
"request_context": {},
"logical_timestamp": 4,
"weight": 1000,
"cluster_uuid": "0005e9cf-ded8-26b1-0393-e99f23ff011e",
"uuid": "509adefa-81ee-481b-a8aa-6ad4e52a49ca",
"start_time_usecs": "2022-09-29T13:15:39Z",
"response": {},
"last_updated_time_usecs": "2022-09-29T13:15:53Z",
"create_time_usecs": "2022-09-29T13:15:39Z",
"status": "kSucceeded",
"local_root_task_uuid": "341a1b25-03d4-4e82-5f92-db0e87d4b064",
"entity_list": [
{
"entity_id": "1376b8b1-7e03-4fbd-b94c-5871740f635e",
"entity_type": "kVM"
},
{
"entity_id": "3df715ab-b7ae-4685-8fa0-c197b8fb18b0",
"entity_type": "kNode"
}
],
"component": "Narsil",
"sequence_id": 5,
"requested_state_transition": "kNone",
"complete_time_usecs": "2022-09-29T13:15:53Z",
"percentage_complete": 100,
"request": "ChATdrixfgNPvblMWHF0D2NeEP///////////wEYAVIQUJre+oHuSBuoqmrU5SpJyloQIz8MZNa0R5a2uU/E34qiKQ==",
"operation_type": "kVmSetPowerState"
}
{
"parent_task_uuid": "509adefa-81ee-481b-a8aa-6ad4e52a49ca",
"internal_opaque": "CiIQAjoQPfcVq7euRoWPoMGXuPsYsFgCegoKBlBrjYLKmBADepICCo8CCowCCg5WbVBvd2VyT25BdWRpdBIQE3a4sX4DT725TFhxdA9jXhoQj9vh+W1xRLijW2BonnJamiIqCgJ2bRIkMTM3NmI4YjEtN2UwMy00ZmJkLWI5NGMtNTg3MTc0MGY2MzVlIiwKBG5vZGUSJDNkZjcxNWFiLWI3YWUtNDY4NS04ZmEwLWMxOTdiOGZiMThiMCpoKGRwMApTJ3ZtX25hbWUnCnAxClZhdXRvX3BjXzYzMzU4NTU4NTdmMmYzZmE1Mjk0OWRhMTEKcDIKc1MnbWVzc2FnZScKcDMKUydQb3dlcmVkIG9uIFZNIHt2bV9uYW1lfScKcDQKcy5Bu8tzrNDpBQBJvqRGrdDpBQBQAQ==",
"disable_auto_progress_update": true,
"capability_list": [
"\u0002"
],
"request_context": {
"user_name": "System"
},
"internal_task": true,
"logical_timestamp": 6,
"weight": 1000,
"cluster_uuid": "0005e9cf-ded8-26b1-0393-e99f23ff011e",
"uuid": "30ee7cf6-8ecd-4641-6c57-13d582757473",
"start_time_usecs": "2022-09-29T13:15:39Z",
"response": {},
"last_updated_time_usecs": "2022-09-29T13:15:53Z",
"create_time_usecs": "2022-09-29T13:15:39Z",
"status": "kSucceeded",
"local_root_task_uuid": "341a1b25-03d4-4e82-5f92-db0e87d4b064",
"entity_list": [
{
"entity_id": "1376b8b1-7e03-4fbd-b94c-5871740f635e",
"entity_type": "kVM",
"logical_timestamp": 3
},
{
"entity_id": "3df715ab-b7ae-4685-8fa0-c197b8fb18b0",
"entity_type": "kNode"
}
],
"component": "Acropolis",
"sequence_id": 16,
"requested_state_transition": "kNone",
"complete_time_usecs": "2022-09-29T13:15:53Z",
"percentage_complete": 100,
"request": "ChATdrixfgNPvblMWHF0D2NeEP///////////wEYAVIQMO589o7NRkFsVxPVgnV0c1oQUJre+oHuSBuoqmrU5SpJyqgBAQ==",
"operation_type": "kVmSetPowerState"
}
{
"parent_task_uuid": "00c22fb0-e0c4-49cc-7ffe-3e7133d894b2",
"internal_opaque": "KGRwMApTJ2ludGVybmFsX3ZtX2NoYW5nZV9wb3dlcl9zdGF0ZV9pZGVtcG90ZW5jZV90b2tlbicKcDEKUydceGMxXHhiOFx4ZjY0XHhlM0RLXHg4Y1x4OTFQXHhkMlx4OWJcdF8vbycKcDIKc1MnaW50ZXJuYWxfdm1fY2hhbmdlX3Bvd2VyX3N0YXRlX29wX2hhbmRsZScKcDMKUydceGMxXHhiOFx4ZjY0XHhlM0RLXHg4Y1x4OTFQXHhkMlx4OWJcdF8vbycKcDQKc1MnaW50ZXJuYWxfY3VycmVudF9zdGF0ZV9pbmZvJwpwNQooUydDT05TT0xJREFURV9SRVNVTFRTJwpwNgpOdHA3CnMu",
"disable_auto_progress_update": true,
"request_context": {},
"logical_timestamp": 5,
"weight": 1000,
"cluster_uuid": "0005e9cf-ded8-26b1-0393-e99f23ff011e",
"uuid": "78f8c5c1-1efa-42ac-af88-023d5ceb119c",
"start_time_usecs": "2022-09-29T13:15:39Z",
"response": {},
"last_updated_time_usecs": "2022-09-29T13:15:50Z",
"create_time_usecs": "2022-09-29T13:15:39Z",
"status": "kSucceeded",
"local_root_task_uuid": "341a1b25-03d4-4e82-5f92-db0e87d4b064",
"entity_list": [
{
"entity_id": "d52c07aa-bac7-40be-8043-876715d863bb",
"entity_type": "kVM"
}
],
"component": "Uhura",
"sequence_id": 6,
"requested_state_transition": "kNone",
"complete_time_usecs": "2022-09-29T13:15:50Z",
"percentage_complete": 100,
"request": "EhAAwi+w4MRJzH/+PnEz2JSyGhDVLAequsdAvoBDh2cV2GO7IAE=",
"operation_type": "VmChangePowerState"
}
{
"parent_task_uuid": "78f8c5c1-1efa-42ac-af88-023d5ceb119c",
"internal_opaque": "CjgKEEP53Ps5mUQffUgAPRdQAqcSJGQ1MmMwN2FhLWJhYzctNDBiZS04MDQzLTg3NjcxNWQ4NjNiYg==",
"disable_auto_progress_update": true,
"request_context": {},
"logical_timestamp": 4,
"weight": 1000,
"cluster_uuid": "0005e9cf-ded8-26b1-0393-e99f23ff011e",
"uuid": "c1b8f634-e344-4b8c-9150-d29b095f2f6f",
"start_time_usecs": "2022-09-29T13:15:39Z",
"response": {},
"last_updated_time_usecs": "2022-09-29T13:15:50Z",
"create_time_usecs": "2022-09-29T13:15:39Z",
"status": "kSucceeded",
"local_root_task_uuid": "341a1b25-03d4-4e82-5f92-db0e87d4b064",
"entity_list": [
{
"entity_id": "d52c07aa-bac7-40be-8043-876715d863bb",
"entity_type": "kVM"
},
{
"entity_id": "3df715ab-b7ae-4685-8fa0-c197b8fb18b0",
"entity_type": "kNode"
}
],
"component": "Narsil",
"sequence_id": 6,
"requested_state_transition": "kNone",
"complete_time_usecs": "2022-09-29T13:15:50Z",
"percentage_complete": 100,
"request": "ChDVLAequsdAvoBDh2cV2GO7EP///////////wEYAVIQwbj2NONES4yRUNKbCV8vb1oQePjFwR76QqyviAI9XOsRnA==",
"operation_type": "kVmSetPowerState"
}
{
"parent_task_uuid": "c1b8f634-e344-4b8c-9150-d29b095f2f6f",
"internal_opaque": "CiIQAjoQPfcVq7euRoWPoMGXuPsYsFgCegoKBlBrjaxW0xADepICCo8CCowCCg5WbVBvd2VyT25BdWRpdBIQ1SwHqrrHQL6AQ4dnFdhjuxoQ3GoH7MA/TwyVqm1d1PDtriIqCgJ2bRIkZDUyYzA3YWEtYmFjNy00MGJlLTgwNDMtODc2NzE1ZDg2M2JiIiwKBG5vZGUSJDNkZjcxNWFiLWI3YWUtNDY4NS04ZmEwLWMxOTdiOGZiMThiMCpoKGRwMApTJ3ZtX25hbWUnCnAxClZhdXRvX3BjXzYzMzU4NTU4NTdmMmYzZmE1Mjk0OWRhMTAKcDIKc1MnbWVzc2FnZScKcDMKUydQb3dlcmVkIG9uIFZNIHt2bV9uYW1lfScKcDQKcy5B1Hl0rNDpBQBJ02EcrdDpBQBQAQ==",
"disable_auto_progress_update": true,
"capability_list": [
"\u0002"
],
"request_context": {
"user_name": "System"
},
"internal_task": true,
"logical_timestamp": 6,
"weight": 1000,
"cluster_uuid": "0005e9cf-ded8-26b1-0393-e99f23ff011e",
"uuid": "43f9dcfb-3999-441f-7d48-003d175002a7",
"start_time_usecs": "2022-09-29T13:15:39Z",
"response": {},
"last_updated_time_usecs": "2022-09-29T13:15:50Z",
"create_time_usecs": "2022-09-29T13:15:39Z",
"status": "kSucceeded",
"local_root_task_uuid": "341a1b25-03d4-4e82-5f92-db0e87d4b064",
"entity_list": [
{
"entity_id": "d52c07aa-bac7-40be-8043-876715d863bb",
"entity_type": "kVM",
"logical_timestamp": 3
},
{
"entity_id": "3df715ab-b7ae-4685-8fa0-c197b8fb18b0",
"entity_type": "kNode"
}
],
"component": "Acropolis",
"sequence_id": 17,
"requested_state_transition": "kNone",
"complete_time_usecs": "2022-09-29T13:15:50Z",
"percentage_complete": 100,
"request": "ChDVLAequsdAvoBDh2cV2GO7EP///////////wEYAVIQQ/nc+zmZRB99SAA9F1ACp1oQwbj2NONES4yRUNKbCV8vb6gBAQ==",
"operation_type": "kVmSetPowerState"
}
{
"parent_task_uuid": "00c22fb0-e0c4-49cc-7ffe-3e7133d894b2",
"internal_opaque": "KGRwMApTJ2ludGVybmFsX3ZtX2NoYW5nZV9wb3dlcl9zdGF0ZV9pZGVtcG90ZW5jZV90b2tlbicKcDEKUyInXHJceGM5XHhkMVx4OGFceDFjQVx4OGNceGEzXHhkNFx4Y2NceGE1XHhhMFx4OTFceGViXHhkMiIKcDIKc1MnaW50ZXJuYWxfdm1fY2hhbmdlX3Bvd2VyX3N0YXRlX29wX2hhbmRsZScKcDMKUyInXHJceGM5XHhkMVx4OGFceDFjQVx4OGNceGEzXHhkNFx4Y2NceGE1XHhhMFx4OTFceGViXHhkMiIKcDQKc1MnaW50ZXJuYWxfY3VycmVudF9zdGF0ZV9pbmZvJwpwNQooUydDT05TT0xJREFURV9SRVNVTFRTJwpwNgpOdHA3CnMu",
"disable_auto_progress_update": true,
"request_context": {},
"logical_timestamp": 5,
"weight": 1000,
"cluster_uuid": "0005e9cf-ded8-26b1-0393-e99f23ff011e",
"uuid": "7f3fbc67-3e6c-4dc2-9560-667b67d5e3fa",
"start_time_usecs": "2022-09-29T13:15:38Z",
"response": {},
"last_updated_time_usecs": "2022-09-29T13:15:47Z",
"create_time_usecs": "2022-09-29T13:15:38Z",
"status": "kSucceeded",
"local_root_task_uuid": "341a1b25-03d4-4e82-5f92-db0e87d4b064",
"entity_list": [
{
"entity_id": "cecc843a-f042-4142-8d19-25cfafe126a7",
"entity_type": "kVM"
}
],
"component": "Uhura",
"sequence_id": 4,
"requested_state_transition": "kNone",
"complete_time_usecs": "2022-09-29T13:15:47Z",
"percentage_complete": 100,
"request": "EhAAwi+w4MRJzH/+PnEz2JSyGhDOzIQ68EJBQo0ZJc+v4SanIAE=",
"operation_type": "VmChangePowerState"
}
{
"parent_task_uuid": "7f3fbc67-3e6c-4dc2-9560-667b67d5e3fa",
"internal_opaque": "CjgKEPavTRVHLUfyRGM3GyopMJ4SJGNlY2M4NDNhLWYwNDItNDE0Mi04ZDE5LTI1Y2ZhZmUxMjZhNw==",
"disable_auto_progress_update": true,
"request_context": {},
"logical_timestamp": 4,
"weight": 1000,
"cluster_uuid": "0005e9cf-ded8-26b1-0393-e99f23ff011e",
"uuid": "270dc9d1-8a1c-418c-a3d4-cca5a091ebd2",
"start_time_usecs": "2022-09-29T13:15:39Z",
"response": {},
"last_updated_time_usecs": "2022-09-29T13:15:47Z",
"create_time_usecs": "2022-09-29T13:15:38Z",
"status": "kSucceeded",
"local_root_task_uuid": "341a1b25-03d4-4e82-5f92-db0e87d4b064",
"entity_list": [
{
"entity_id": "cecc843a-f042-4142-8d19-25cfafe126a7",
"entity_type": "kVM"
},
{
"entity_id": "3df715ab-b7ae-4685-8fa0-c197b8fb18b0",
"entity_type": "kNode"
}
],
"component": "Narsil",
"sequence_id": 4,
"requested_state_transition": "kNone",
"complete_time_usecs": "2022-09-29T13:15:47Z",
"percentage_complete": 100,
"request": "ChDOzIQ68EJBQo0ZJc+v4SanEP///////////wEYAVIQJw3J0YocQYyj1MyloJHr0loQfz+8Zz5sTcKVYGZ7Z9Xj+g==",
"operation_type": "kVmSetPowerState"
}
{
"parent_task_uuid": "270dc9d1-8a1c-418c-a3d4-cca5a091ebd2",
"internal_opaque": "CiIQAjoQPfcVq7euRoWPoMGXuPsYsFgCegoKBlBrjdeLkBADepICCo8CCowCCg5WbVBvd2VyT25BdWRpdBIQzsyEOvBCQUKNGSXPr+EmpxoQ0NCvoWJ9Q8Kj+u/MCWPXviIqCgJ2bRIkY2VjYzg0M2EtZjA0Mi00MTQyLThkMTktMjVjZmFmZTEyNmE3IiwKBG5vZGUSJDNkZjcxNWFiLWI3YWUtNDY4NS04ZmEwLWMxOTdiOGZiMThiMCpoKGRwMApTJ3ZtX25hbWUnCnAxClZhdXRvX3BjXzYzMzU4NTU4NTdmMmYzZmE1Mjk0OWRhMTIKcDIKc1MnbWVzc2FnZScKcDMKUydQb3dlcmVkIG9uIFZNIHt2bV9uYW1lfScKcDQKcy5BjeVwrNDpBQBJTbTzrNDpBQBQAQ==",
"disable_auto_progress_update": true,
"capability_list": [
"\u0002"
],
"request_context": {
"user_name": "System"
},
"internal_task": true,
"logical_timestamp": 6,
"weight": 1000,
"cluster_uuid": "0005e9cf-ded8-26b1-0393-e99f23ff011e",
"uuid": "f6af4d15-472d-47f2-4463-371b2a29309e",
"start_time_usecs": "2022-09-29T13:15:39Z",
"response": {},
"last_updated_time_usecs": "2022-09-29T13:15:47Z",
"create_time_usecs": "2022-09-29T13:15:39Z",
"status": "kSucceeded",
"local_root_task_uuid": "341a1b25-03d4-4e82-5f92-db0e87d4b064",
"entity_list": [
{
"entity_id": "cecc843a-f042-4142-8d19-25cfafe126a7",
"entity_type": "kVM",
"logical_timestamp": 3
},
{
"entity_id": "3df715ab-b7ae-4685-8fa0-c197b8fb18b0",
"entity_type": "kNode"
}
],
"component": "Acropolis",
"sequence_id": 15,
"requested_state_transition": "kNone",
"complete_time_usecs": "2022-09-29T13:15:47Z",
"percentage_complete": 100,
"request": "ChDOzIQ68EJBQo0ZJc+v4SanEP///////////wEYAVIQ9q9NFUctR/JEYzcbKikwnloQJw3J0YocQYyj1MyloJHr0qgBAQ==",
"operation_type": "kVmSetPowerState"
}
{
"parent_task_uuid": "00c22fb0-e0c4-49cc-7ffe-3e7133d894b2",
"internal_opaque": "CgIQAQ==",
"disable_auto_progress_update": true,
"capability_list": [
"\u0002"
],
"request_context": {
"user_name": "System"
},
"logical_timestamp": 3,
"weight": 1000,
"cluster_uuid": "0005e9cf-ded8-26b1-0393-e99f23ff011e",
"uuid": "f6db9a20-f3e3-4811-809d-148ce9e6760e",
"start_time_usecs": "2022-09-29T13:15:38Z",
"response": {},
"last_updated_time_usecs": "2022-09-29T13:15:38Z",
"create_time_usecs": "2022-09-29T13:15:38Z",
"status": "kSucceeded",
"local_root_task_uuid": "341a1b25-03d4-4e82-5f92-db0e87d4b064",
"entity_list": [
{
"entity_id": "d52c07aa-bac7-40be-8043-876715d863bb",
"entity_type": "kVM",
"logical_timestamp": 2
}
],
"component": "Acropolis",
"sequence_id": 14,
"requested_state_transition": "kNone",
"complete_time_usecs": "2022-09-29T13:15:38Z",
"percentage_complete": 100,
"request": "ChDVLAequsdAvoBDh2cV2GO7ahAAwi+w4MRJzH/+PnEz2JSyqgEQXEc6lPYTR+WpSEFA51UOMg==",
"operation_type": "kVmUpdate"
}
{
"parent_task_uuid": "00c22fb0-e0c4-49cc-7ffe-3e7133d894b2",
"internal_opaque": "CgIQAQ==",
"disable_auto_progress_update": true,
"capability_list": [
"\u0002"
],
"request_context": {
"user_name": "System"
},
"logical_timestamp": 3,
"weight": 1000,
"cluster_uuid": "0005e9cf-ded8-26b1-0393-e99f23ff011e",
"uuid": "2e7e2f80-a051-4867-ad58-90add669c319",
"start_time_usecs": "2022-09-29T13:15:38Z",
"response": {},
"last_updated_time_usecs": "2022-09-29T13:15:38Z",
"create_time_usecs": "2022-09-29T13:15:38Z",
"status": "kSucceeded",
"local_root_task_uuid": "341a1b25-03d4-4e82-5f92-db0e87d4b064",
"entity_list": [
{
"entity_id": "1376b8b1-7e03-4fbd-b94c-5871740f635e",
"entity_type": "kVM",
"logical_timestamp": 2
}
],
"component": "Acropolis",
"sequence_id": 13,
"requested_state_transition": "kNone",
"complete_time_usecs": "2022-09-29T13:15:38Z",
"percentage_complete": 100,
"request": "ChATdrixfgNPvblMWHF0D2NeahAAwi+w4MRJzH/+PnEz2JSyqgEQXEc6lPYTR+WpSEFA51UOMg==",
"operation_type": "kVmUpdate"
}
{
"parent_task_uuid": "00c22fb0-e0c4-49cc-7ffe-3e7133d894b2",
"internal_opaque": "CgIQAQ==",
"disable_auto_progress_update": true,
"capability_list": [
"\u0002"
],
"request_context": {
"user_name": "System"
},
"logical_timestamp": 3,
"weight": 1000,
"cluster_uuid": "0005e9cf-ded8-26b1-0393-e99f23ff011e",
"uuid": "a60f941b-0cda-4ad0-8d4e-6dca35b91ca0",
"start_time_usecs": "2022-09-29T13:15:38Z",
"response": {},
"last_updated_time_usecs": "2022-09-29T13:15:38Z",
"create_time_usecs": "2022-09-29T13:15:38Z",
"status": "kSucceeded",
"local_root_task_uuid": "341a1b25-03d4-4e82-5f92-db0e87d4b064",
"entity_list": [
{
"entity_id": "cecc843a-f042-4142-8d19-25cfafe126a7",
"entity_type": "kVM",
"logical_timestamp": 2
}
],
"component": "Acropolis",
"sequence_id": 12,
"requested_state_transition": "kNone",
"complete_time_usecs": "2022-09-29T13:15:38Z",
"percentage_complete": 100,
"request": "ChDOzIQ68EJBQo0ZJc+v4SanahAAwi+w4MRJzH/+PnEz2JSyqgEQXEc6lPYTR+WpSEFA51UOMg==",
"operation_type": "kVmUpdate"
}
{
"parent_task_uuid": "00c22fb0-e0c4-49cc-7ffe-3e7133d894b2",
"internal_opaque": "QhIKEFxHOpT2E0flqUhBQOdVDjI=",
"disable_auto_progress_update": true,
"request_context": {
"user_name": "System"
},
"logical_timestamp": 2,
"weight": 1000,
"cluster_uuid": "0005e9cf-ded8-26b1-0393-e99f23ff011e",
"uuid": "0f90df95-b2dc-44e1-ad5e-01ee8507ebd1",
"start_time_usecs": "2022-09-29T13:15:38Z",
"response": {
"ret": "ChBcRzqU9hNH5alIQUDnVQ4y"
},
"last_updated_time_usecs": "2022-09-29T13:15:38Z",
"create_time_usecs": "2022-09-29T13:15:38Z",
"status": "kSucceeded",
"local_root_task_uuid": "341a1b25-03d4-4e82-5f92-db0e87d4b064",
"entity_list": [
{
"entity_id": "5c473a94-f613-47e5-a948-4140e7550e32",
"entity_type": "kVmGroup"
}
],
"component": "Acropolis",
"sequence_id": 11,
"requested_state_transition": "kNone",
"complete_time_usecs": "2022-09-29T13:15:38Z",
"percentage_complete": 100,
"request": "Cg5wY19hZmZkOWMzOTAxZBIECAIQAiIQAMIvsODEScx//j5xM9iUsg==",
"operation_type": "kVmGroupCreate"
}
{
"parent_task_uuid": "00c22fb0-e0c4-49cc-7ffe-3e7133d894b2",
"internal_opaque": "KGRwMApTJ2ludGVybmFsX2NsZWFyX3ZtX3RyYW5zaWVudCcKcDEKSTAxCnNTJ2ludGVybmFsX3ZtX2NyZWF0ZV9vcF9oYW5kbGUnCnAyClMnXHg4MFx4OWNceGNjXHhmNkpceGU4SVx4ZDJceGIwXHgwMVx4ZjdceGFhXHgxNFx4MTlceGM3XHgxMicKcDMKc1MnaW50ZXJuYWxfY3VycmVudF9zdGF0ZV9pbmZvJwpwNAooUydDT05TT0xJREFURV9SRVNVTFRTJwpwNQpOdHA2CnNTJ2ludGVybmFsX3ZtX2NyZWF0ZV9pZGVtcG90ZW5jZV90b2tlbicKcDcKUydceDgwXHg5Y1x4Y2NceGY2Slx4ZThJXHhkMlx4YjBceDAxXHhmN1x4YWFceDE0XHgxOVx4YzdceDEyJwpwOApzUydpbnRlcm5hbF92bV91dWlkJwpwOQpTJ1x4MTN2XHhiOFx4YjF+XHgwM09ceGJkXHhiOUxYcXRceDBmY14nCnAxMApzUydpbnRlcm5hbF92bV9hZ25vc3RpY191dWlkJwpwMTEKUycxMzc2YjhiMS03ZTAzLTRmYmQtYjk0Yy01ODcxNzQwZjYzNWUnCnAxMgpzLg==",
"disable_auto_progress_update": true,
"request_context": {},
"logical_timestamp": 6,
"weight": 1000,
"cluster_uuid": "0005e9cf-ded8-26b1-0393-e99f23ff011e",
"uuid": "3c2fd7b3-07c7-4256-b1c4-708e04158630",
"start_time_usecs": "2022-09-29T13:15:33Z",
"response": {
"ret": "ChATdrixfgNPvblMWHF0D2Ne"
},
"last_updated_time_usecs": "2022-09-29T13:15:37Z",
"create_time_usecs": "2022-09-29T13:15:33Z",
"status": "kSucceeded",
"local_root_task_uuid": "341a1b25-03d4-4e82-5f92-db0e87d4b064",
"entity_list": [
{
"entity_id": "1376b8b1-7e03-4fbd-b94c-5871740f635e",
"entity_type": "kVM"
}
],
"component": "Uhura",
"sequence_id": 2,
"requested_state_transition": "kNone",
"complete_time_usecs": "2022-09-29T13:15:37Z",
"percentage_complete": 100,
"request": "EhATdrixfgNPvblMWHF0D2NeGhAAwi+w4MRJzH/+PnEz2JSyIiFhdXRvX3BjXzYzMzU4NTU4NTdmMmYzZmE1Mjk0OWRhMTEqE051dGFuaXhQcmlzbUNlbnRyYWwwBkiA0AFaQAgAEAAyOgo4CAAiNC9kZWZhdWx0LWNvbnRhaW5lci04Mzk0MTU4MzU0OTUwOS9tYXN0ZXItcGMtYm9vdC5pbWdaQAgAEAEyOgo4CAAiNC9kZWZhdWx0LWNvbnRhaW5lci04Mzk0MTU4MzU0OTUwOS9tYXN0ZXItcGMtaG9tZS5pbWdaQwgAEAYyPQo7CAAiNy9kZWZhdWx0LWNvbnRhaW5lci04Mzk0MTU4MzU0OTUwOS9tYXN0ZXItcGMtdXBncmFkZS5pbWdaHAgAEAM6FgiAoB8SEC8Ga+Z2mELjoJBk2XHQo2daHAgAEAU6FgiAoAYSEC8Ga+Z2mELjoJBk2XHQo2daHAgAEAQ6Fgi2uwQSEC8Ga+Z2mELjoJBk2XHQo2daUQgBGAEySwpJIkcvZGVmYXVsdC1jb250YWluZXItODM5NDE1ODM1NDk1MDkvYXV0b19wY182MzM1ODU1ODU3ZjJmM2ZhNTI5NDlkYTExLmlzb3IUOABaEAwmJqUGIkCVk43ncmxTA76aAQtjZW50b3NHdWVzdPABBKICBAgAEAI=",
"operation_type": "VmCreate"
}
{
"parent_task_uuid": "3c2fd7b3-07c7-4256-b1c4-708e04158630",
"internal_opaque": "CjgKEMZ6co+RKUKibcKn9U3e1X0SJDEzNzZiOGIxLTdlMDMtNGZiZC1iOTRjLTU4NzE3NDBmNjM1ZQ==",
"disable_auto_progress_update": true,
"request_context": {},
"logical_timestamp": 4,
"weight": 1000,
"cluster_uuid": "0005e9cf-ded8-26b1-0393-e99f23ff011e",
"uuid": "809cccf6-4ae8-49d2-b001-f7aa1419c712",
"start_time_usecs": "2022-09-29T13:15:33Z",
"response": {
"ret": "ChATdrixfgNPvblMWHF0D2Ne"
},
"last_updated_time_usecs": "2022-09-29T13:15:37Z",
"create_time_usecs": "2022-09-29T13:15:33Z",
"status": "kSucceeded",
"local_root_task_uuid": "341a1b25-03d4-4e82-5f92-db0e87d4b064",
"entity_list": [
{
"entity_id": "1376b8b1-7e03-4fbd-b94c-5871740f635e",
"entity_type": "kVM"
}
],
"component": "Narsil",
"sequence_id": 2,
"requested_state_transition": "kNone",
"complete_time_usecs": "2022-09-29T13:15:37Z",
"percentage_complete": 100,
"request": "CqIECiFhdXRvX3BjXzYzMzU4NTU4NTdmMmYzZmE1Mjk0OWRhMTESE051dGFuaXhQcmlzbUNlbnRyYWwYBiCA0AEqQgoICgRzY3NpEAAiNhI0L2RlZmF1bHQtY29udGFpbmVyLTgzOTQxNTgzNTQ5NTA5L21hc3Rlci1wYy1ib290LmltZypCCggKBHNjc2kQASI2EjQvZGVmYXVsdC1jb250YWluZXItODM5NDE1ODM1NDk1MDkvbWFzdGVyLXBjLWhvbWUuaW1nKkUKCAoEc2NzaRAGIjkSNy9kZWZhdWx0LWNvbnRhaW5lci04Mzk0MTU4MzU0OTUwOS9tYXN0ZXItcGMtdXBncmFkZS5pbWcqJQoICgRzY3NpEAMqGQiAgICA0A8iEC8Ga+Z2mELjoJBk2XHQo2cqJQoICgRzY3NpEAUqGQiAgICAkAMiEC8Ga+Z2mELjoJBk2XHQo2cqJQoICgRzY3NpEAQqGQiAgIDbnQIiEC8Ga+Z2mELjoJBk2XHQo2cqVgoFCgNpZGUQARgAIkkSRy9kZWZhdWx0LWNvbnRhaW5lci04Mzk0MTU4MzU0OTUwOS9hdXRvX3BjXzYzMzU4NTU4NTdmMmYzZmE1Mjk0OWRhMTEuaXNvMhgSEAwmJqUGIkCVk43ncmxTA74oATgAQAE6EBN2uLF+A0+9uUxYcXQPY15KA1VUQ2oECAAQAoABALoBAnBjwAEAyAEEyAIBEhCAnMz2SuhJ0rAB96oUGccSGhA8L9ezB8dCVrHEcI4EFYYw",
"operation_type": "kVmCreate"
}
{
"parent_task_uuid": "809cccf6-4ae8-49d2-b001-f7aa1419c712",
